[{"lon": 54.601, "lat": 24.471, "zoom": 14, "location": "Abu Dhabi", "name": "Yas Marina Circuit"},
{"lon": -97.633, "lat": 30.135, "zoom": 14, "location": "Austin", "name": "Circuit of the Americas"},
{"lon": 50.512, "lat": 26.031, "zoom": 14, "location": "Bahrain", "name": "Bahrain International Circuit"},
{"lon": 49.842, "lat": 40.369, "zoom": 14, "location": "Baku", "name": "Baku City Circuit"},
{"lon": 2.259, "lat": 41.569, "zoom": 14, "location": "Barcelona", "name": "Circuit de Barcelona-Catalunya"},
{"lon": 8.572, "lat": 49.330, "zoom": 14, "location": "Hockenheim", "name": "Hockenheimring"},
{"lon": 5.791, "lat": 43.253, "zoom": 14, "location": "Le Castellet", "name": "Circuit Paul Ricard"},
{"lon": 144.970, "lat": -37.846, "zoom": 14, "location": "Melbourne", "name": "Albert Park Circuit"},
{"lon": -99.091, "lat": 19.402, "zoom": 15, "location": "Mexico City", "name": "Autódromo Hermanos Rodríguez"},
{"lon": 7.429, "lat": 43.737, "zoom": 14, "location": "Monte Carlo", "name": "Circuit de Monaco"},
{"lon": -73.525, "lat": 45.506, "zoom": 14, "location": "Montreal", "name": "Circuit Gilles-Villeneuve"},
{"lon": 9.290, "lat": 45.621, "zoom": 13, "location": "Monza", "name": "Autodromo Nazionale Monza"},
{"lon": 19.250, "lat": 47.583, "zoom": 14, "location": "Pest", "name": "Hungaroring"},
{"lon": -46.698, "lat": -23.702, "zoom": 14, "location": "Sao Paulo", "name": "Autódromo José Carlos Pace"},
{"lon": 121.221, "lat": 31.340, "zoom": 14, "location": "Shanghai", "name": "Shanghai International Circuit"},
{"lon": -1.017, "lat": 52.072, "zoom": 14, "location": "Silverstone", "name": "Silverstone Circuit"},
{"lon": 103.859, "lat": 1.291, "zoom": 15, "location": "Singapore", "name": "Marina Bay Street Circuit"},
{"lon": 39.960, "lat": 43.407, "zoom": 14, "location": "Sochi", "name": "Sochi Autodrom"},
{"lon": 5.971, "lat": 50.436, "zoom": 13, "location": "Spa Francorchamps", "name": "Circuit de Spa-Francorchamps"},
{"lon": 14.761, "lat": 47.223, "zoom": 14, "location": "Spielberg", "name": "Red Bull Ring"},
{"lon": 136.534, "lat": 34.844, "zoom": 14, "location": "Suzuka", "name": "Suzuka International Racing Course"}]