[
    {"lon": 54.601, "lat": 24.471, "zoom": 14, "location": "Abu Dhabi", "name": "Yas Marina Circuit", "id": "ae-2009"},
    {"lon": -97.633, "lat": 30.135, "zoom": 15, "location": "Austin", "name": "Circuit of the Americas", "id": "us-2012"},
    {"lon": 49.842, "lat": 40.369, "zoom": 14, "location": "Baku", "name": "Baku City Circuit", "id": "az-2016"},
    {"lon": 2.259, "lat": 41.569, "zoom": 14, "location": "Barcelona", "name": "Circuit de Barcelona-Catalunya", "id": "es-1991"},
    {"lon": 19.250, "lat": 47.583, "zoom": 14, "location": "Budapest", "name": "Hungaroring", "id": "hu-1986"},
    {"lon": -9.394, "lat": 38.751, "zoom": 14, "location": "Estoril", "name": "Autódromo do Estoril", "id": "pt-1972"},
    {"lon": 8.572, "lat": 49.330, "zoom": 14, "location": "Hockenheim", "name": "Hockenheimring", "id": "de-1932"},
    {"lon": 11.713, "lat": 44.341, "zoom": 15, "location": "Imola", "name": "Autodromo Enzo e Dino Ferrari", "id": "it-1953"},
    {"lon": 29.412, "lat": 40.958, "zoom": 15, "location": "Istanbul", "name": "Intercity Istanbul Park", "id": "tr-2005"},
    {"lon": -43.395, "lat": -22.976, "zoom": 15, "location": "Jacarepaguá", "name": "Autódromo Internacional Nelson Piquet", "id": "br-1977"},
    {"lon": 39.104, "lat": 21.632, "zoom": 14, "location": "Jeddah", "name": "Jeddah Street Circuit", "id": "sa-2021"},
    {"lon": 5.791, "lat": 43.253, "zoom": 14, "location": "Le Castellet", "name": "Circuit Paul Ricard", "id": "fr-1969"},
    {"lon": 3.164, "lat": 46.863, "zoom": 15, "location": "Magny-Cours", "name": "Circuit de Nevers Magny-Cours", "id": "fr-1960"},
    {"lon": 144.970, "lat": -37.846, "zoom": 14, "location": "Melbourne", "name": "Albert Park Circuit", "id": "au-1953"},
    {"lon": -99.091, "lat": 19.402, "zoom": 15, "location": "Mexico City", "name": "Autódromo Hermanos Rodríguez", "id": "mx-1962"},
    {"lon": 7.429, "lat": 43.737, "zoom": 15, "location": "Monte Carlo", "name": "Circuit de Monaco", "id": "mc-1929"},
    {"lon": -73.525, "lat": 45.506, "zoom": 14, "location": "Montreal", "name": "Circuit Gilles-Villeneuve", "id": "ca-1978"},
    {"lon": 9.290, "lat": 45.621, "zoom": 13, "location": "Monza", "name": "Autodromo Nazionale Monza", "id": "it-1922"},
    {"lon": 6.943, "lat": 50.334, "zoom": 14, "location": "Nürburg", "name": "Nürburgring", "id": "de-1927"},
    {"lon": -8.628, "lat": 37.232, "zoom": 15, "location": "Portimão", "name": "Autódromo Internacional do Algarve", "id": "pt-2008"},
    {"lon": 50.512, "lat": 26.031, "zoom": 15, "location": "Sakhir", "name": "Bahrain International Circuit", "id": "bh-2002"},
    {"lon": -46.698, "lat": -23.702, "zoom": 15, "location": "Sao Paulo", "name": "Autódromo José Carlos Pace", "id": "br-1940"},
    {"lon": 11.372, "lat": 43.998, "zoom": 15, "location": "Scarperia e San Piero", "name": "Autodromo Internazionale del Mugello", "id": "it-1914"},
    {"lon": 101.738, "lat": 2.761, "zoom": 15, "location": "Sepang", "name": "Sepang International Circuit", "id": "my-1999"},
    {"lon": 121.221, "lat": 31.340, "zoom": 14, "location": "Shanghai", "name": "Shanghai International Circuit", "id": "cn-2004"},
    {"lon": -1.017, "lat": 52.072, "zoom": 14, "location": "Silverstone", "name": "Silverstone Circuit", "id": "gb-1948"},
    {"lon": 103.859, "lat": 1.291, "zoom": 15, "location": "Singapore", "name": "Marina Bay Street Circuit", "id": "sg-2008"},
    {"lon": 39.960, "lat": 43.407, "zoom": 14, "location": "Sochi", "name": "Sochi Autodrom", "id": "ru-2014"},
    {"lon": 5.971, "lat": 50.436, "zoom": 13, "location": "Spa Francorchamps", "name": "Circuit de Spa-Francorchamps", "id": "be-1925"},
    {"lon": 14.761, "lat": 47.223, "zoom": 15, "location": "Spielberg", "name": "Red Bull Ring", "id": "at-1969"},
    {"lon": 136.534, "lat": 34.844, "zoom": 15, "location": "Suzuka", "name": "Suzuka International Racing Course", "id": "jp-1962"},
    {"lon": 4.541, "lat": 52.389, "zoom": 15, "location": "Zandvoort", "name": "Circuit Zandvoort", "id": "nl-1948"}
]