[{"lat": 24.471, "lon": 54.601, "zoom": 14, "name": "Abu Dhabi", "text": "Yas Marina Circuit"},
{"lat": 30.135, "lon": -97.633, "zoom": 14, "name": "Austin", "text": "Circuit of the Americas"},
{"lat": 26.031, "lon": 50.512, "zoom": 14, "name": "Bahrain", "text": "Bahrain International Circuit"},
{"lat": 40.369, "lon": 49.842, "zoom": 14, "name": "Baku", "text": "Baku City Circuit"},
{"lat": 41.569, "lon": 2.259, "zoom": 14, "name": "Barcelona", "text": "Circuit de Barcelona-Catalunya"},
{"lat": 49.330, "lon": 8.572, "zoom": 14, "name": "Hockenheim", "text": "Hockenheimring"},
{"lat": 43.253, "lon": 5.791, "zoom": 14, "name": "Le Castellet", "text": "Circuit Paul Ricard"},
{"lat": -37.846, "lon": 144.970, "zoom": 14, "name": "Melbourne", "text": "Melbourne Grand Prix Circuit"},
{"lat": 19.402, "lon": -99.091, "zoom": 15, "name": "Mexico City", "text": "Autódromo Hermanos Rodríguez"},
{"lat": 43.737, "lon": 7.429, "zoom": 14, "name": "Monte Carlo", "text": "Circuit de Monaco"},
{"lat": 45.506, "lon": -73.525, "zoom": 14, "name": "Montreal", "text": "Circuit Gilles-Villeneuve"},
{"lat": 45.621, "lon": 9.290, "zoom": 13, "name": "Monza", "text": "Autodromo Nazionale Monza"},
{"lat": 47.583, "lon": 19.250, "zoom": 14, "name": "Pest", "text": "Hungaroring"},
{"lat": -23.702, "lon": -46.698, "zoom": 14, "name": "Sao Paulo", "text": "Autódromo José Carlos Pace"},
{"lat": 31.340, "lon": 121.221, "zoom": 14, "name": "Shanghai", "text": "Shanghai International Circuit"},
{"lat": 52.072, "lon": -1.017, "zoom": 14, "name": "Silverstone", "text": "Silverstone Circuit"},
{"lat": 1.291, "lon": 103.859, "zoom": 15, "name": "Singapore", "text": "Marina Bay Street Circuit"},
{"lat": 43.407, "lon": 39.960, "zoom": 14, "name": "Sochi", "text": "Sochi Autodrom"},
{"lat": 50.436, "lon": 5.971, "zoom": 13, "name": "Spa Francorchamps", "text": "Circuit de Spa-Francorchamps"},
{"lat": 47.223, "lon": 14.761, "zoom": 14, "name": "Spielberg", "text": "Red Bull Ring"},
{"lat": 34.844, "lon": 136.534, "zoom": 14, "name": "Suzuka", "text": "Suzuka International Racing Course"}]