[{"lat": 24.47, "lon": 54.60, "zoom": 14, "name": "Abu Dhabi", "text": "Yas Marina Circuit"},
{"lat": 30.13, "lon": -97.63, "zoom": 14, "name": "Austin", "text": "Circuit of the Americas"},
{"lat": 26.03, "lon": 50.51, "zoom": 14, "name": "Bahrain", "text": "Bahrain International Circuit"},
{"lat": 40.37, "lon": 49.84, "zoom": 14, "name": "Baku", "text": "Baku City Circuit"},
{"lat": 41.57, "lon": 2.26, "zoom": 14, "name": "Barcelona", "text": "Circuit de Barcelona-Catalunya"},
{"lat": 49.33, "lon": 8.57, "zoom": 14, "name": "Hockenheim", "text": "Hockenheimring"},
{"lat": 43.25, "lon": 5.79, "zoom": 14, "name": "Le Castellet", "text": "Circuit Paul Ricard - Le Castellet"},
{"lat": -37.85, "lon": 144.97, "zoom": 14, "name": "Melbourne", "text": "Melbourne (Albert Park) Circuit"},
{"lat": 19.40, "lon": -99.09, "zoom": 14, "name": "Mexico City", "text": "Autódromo Hermanos Rodríguez"},
{"lat": 43.74, "lon": 7.43, "zoom": 14, "name": "Monte Carlo", "text": "Circuit de Monaco"},
{"lat": 45.50, "lon": -73.53, "zoom": 14, "name": "Montreal", "text": "Circuit Gilles Villeneuve"},
{"lat": 45.62, "lon": 9.29, "zoom": 14, "name": "Monza", "text": "Autodromo di Monza"},
{"lat": 47.58, "lon": 19.25, "zoom": 14, "name": "Pest", "text": "Hungaroring"},
{"lat": -23.70, "lon": -46.70, "zoom": 14, "name": "Sao Paulo", "text": "Autódromo José Carlos Pace"},
{"lat": 31.34, "lon": 121.22, "zoom": 14, "name": "Shanghai", "text": "Shanghai International Circuit"},
{"lat": 52.07, "lon": -1.02, "zoom": 14, "name": "Silverstone", "text": "Silverstone Circuit"},
{"lat": 1.29, "lon": 103.86, "zoom": 14, "name": "Singapore", "text": "Marina Bay Street Circuit"},
{"lat": 43.41, "lon": 39.96, "zoom": 14, "name": "Sochi", "text": "Sochi Autodrom"},
{"lat": 50.44, "lon": 5.97, "zoom": 14, "name": "Spa Francorchamps", "text": "Circuit de Spa-Francorchamps"},
{"lat": 47.22, "lon": 14.76, "zoom": 14, "name": "Spielberg", "text": "Red Bull Ring"},
{"lat": 34.85, "lon": 136.53, "zoom": 14, "name": "Suzuka", "text": "Suzuka Circuit"}]